[
  { "id": "t-tsutenkaku",    "name": "通天閣",       "nameEn": "Tsutenkaku Tower",     "lat": 34.6524, "lng": 135.5063 },
  { "id": "t-kiyomizudera", "name": "清水寺",       "nameEn": "Kiyomizudera Temple",  "lat": 34.9949, "lng": 135.7850 },
  { "id": "t-todaiji",      "name": "東大寺",       "nameEn": "Todaiji Temple",        "lat": 34.6888, "lng": 135.8398 },
  { "id": "t-kinkakuji",    "name": "金閣寺",       "nameEn": "Kinkakuji Temple",      "lat": 35.0394, "lng": 135.7292 },
  { "id": "t-fushimiinari", "name": "伏見稲荷大社", "nameEn": "Fushimi Inari Shrine", "lat": 34.9671, "lng": 135.7727 },
  { "id": "t-arashiyama",   "name": "嵐山",         "nameEn": "Arashiyama",            "lat": 35.0094, "lng": 135.6752 },
  { "id": "t-dotonbori",    "name": "道頓堀",       "nameEn": "Dotonbori",             "lat": 34.6687, "lng": 135.5013 },
  { "id": "t-narapark",     "name": "奈良公園",     "nameEn": "Nara Park",             "lat": 34.6845, "lng": 135.8326 },
  { "id": "t-himeji",       "name": "姫路城",       "nameEn": "Himeji Castle",         "lat": 34.8394, "lng": 134.6939 },
  { "id": "t-osaka-castle", "name": "大阪城",       "nameEn": "Osaka Castle",          "lat": 34.6873, "lng": 135.5262 }
]
